[
    {"id": 2643743, "name": "London", "state": "", "country": "GB", "coord": {"lon": -0.12574, "lat": 51.50853}},
    {"id": 2968815, "name": "Paris", "state": "", "country": "FR", "coord": {"lon": 2.3486, "lat": 48.853401}},
    {"id": 5128638, "name": "New York", "state": "NY", "country": "US", "coord": {"lon": -75.499901, "lat": 43.000351}},
    {"id": 5368361, "name": "Los Angeles", "state": "CA", "country": "US", "coord": {"lon": -118.243683, "lat": 34.052231}},
    {"id": 1850147, "name": "Tokyo", "state": "", "country": "JP", "coord": {"lon": 139.691711, "lat": 35.689499}}
]